{
  "local": [
    {
      "name": "Vallartas Express",
      "address":"9500 Gilman Dr.",
      "distance": 0.2,
      "category": "Mexican, Eateries",
      "hours": "M-F 11:00AM - 10:00PM",
      "tags": ["#food", "#sf2016"],
      "notes": "Best shrimp tacos",
      "images": ["../images/vallartas.png"]
    },
    {
      "name": "Karl Strauss Brewery",
      "address":"9500 Gilman Dr.",
      "distance": 0.3,
      "category": "Breweries",
      "hours": "M-F 11:00AM - 10:00PM",
      "tags": ["#food", "#sf2016"],
      "notes": "Best shrimp tacos",
      "images": ["../images/brewery.png"]
    },
    {
      "name": "Cool Taco Place",
      "address":"123 Salsa Lane",
      "distance": 0.5,
      "category": "Mexican, Eateries",
      "hours": "M-F 11:00AM - 10:00PM",
      "tags": ["#food", "#sf2016"],
      "notes": "Went on a nice date",
      "images": ["../images/tacos.png"]
    },
    {
      "name": "Regents Pizza",
      "address":"9500 Gilman Dr.",
      "distance": 0.4,
      "category": "Pizza",
      "hours": "M-F 11:00AM - 10:00PM",
      "tags": ["#food", "#sf2016"],
      "notes": "Best shrimp tacos",
      "images": ["../images/pizza.png"]
    },
    {
      "name": "Sushi Ota",
      "address":"9500 Gilman Dr.",
      "distance": 0.5,
      "category": "Japanese, Eateries",
      "hours": "M-F 11:00AM - 10:00PM",
      "tags": ["#food", "#sf2016"],
      "notes": "Best shrimp tacos",
      "images": ["../images/sushi.png"]
    },
    {
      "name": "Sun God Statue",
      "address":"9500 Gilman Dr.",
      "distance": 0.6,
      "category": "Monument",
      "hours": "M-F 11:00AM - 10:00PM",
      "tags": ["#food", "#sf2016"],
      "notes": "Best shrimp tacos",
      "images": ["../images/sungod.png"]
    }
  ],

  "lists": [
    { "name": "#Bae",
      "locations": ["Vallartas Express", "Sun God Statue", "Cool Taco Place", "Sushi Ota", "Karl Strauss Brewery", "Regents Pizza"]
    },
    { "name": "#Tacos",
      "locations": ["Cool Taco Place"]
    },
    { "name": "#Summer16",
      "locations": ["Vallartas Express", "Cool Taco Place", "Sushi Ota", "Karl Strauss Brewery", "Regents Pizza"]
    }
  ]
}
